City_ID,City,Country,Lat,Lng,Max Temp,Humidity,Cloudiness,Wind Speed,Current Description,Date
0,norman wells,CA,65.28,-126.83,3.2,84,75,3.36,broken clouds,2020-11-02 02:42:34
1,port alfred,ZA,-33.59,26.89,64.62,82,26,17.25,scattered clouds,2020-11-02 02:42:34
2,puerto ayora,EC,-0.74,-90.35,69.01,91,100,4.0,overcast clouds,2020-11-02 02:42:34
3,bluff,NZ,-46.6,168.33,55.99,61,48,10.0,scattered clouds,2020-11-02 02:42:34
4,cidreira,BR,-30.18,-50.21,61.47,64,2,6.08,clear sky,2020-11-02 02:42:34
5,hobart,AU,-42.88,147.33,81.0,40,0,9.17,clear sky,2020-11-02 02:42:34
6,barcelos,PT,41.54,-8.62,64.4,100,90,10.29,mist,2020-11-02 02:42:34
7,bredasdorp,ZA,-34.53,20.04,64.4,82,100,13.87,overcast clouds,2020-11-02 02:37:58
8,sitka,US,57.05,-135.33,50.0,87,90,25.28,heavy intensity rain,2020-11-02 02:42:34
9,lamar,US,33.67,-95.58,50.0,57,1,5.82,clear sky,2020-11-02 02:50:58
10,narsaq,GL,60.92,-46.05,23.0,73,0,4.7,clear sky,2020-11-02 02:50:58
11,vaini,TO,-21.2,-175.2,80.6,78,20,13.87,few clouds,2020-11-02 02:50:58
12,saint george,US,37.1,-113.58,66.2,14,1,6.93,clear sky,2020-11-02 02:46:04
13,aguimes,ES,27.91,-15.45,71.6,60,0,16.11,clear sky,2020-11-02 02:50:58
14,rikitea,PF,-23.12,-134.97,73.85,86,91,24.32,overcast clouds,2020-11-02 02:46:33
15,cabo san lucas,MX,22.89,-109.91,79.0,72,0,5.66,clear sky,2020-11-02 02:50:58
16,camocim,BR,-2.9,-40.84,77.92,86,64,8.84,broken clouds,2020-11-02 02:50:58
17,avarua,CK,-21.21,-159.78,78.8,83,93,17.22,light rain,2020-11-02 02:50:58
18,kisangani,CD,0.52,25.2,69.6,98,100,1.5,light rain,2020-11-02 02:50:58
19,qaanaaq,GL,77.48,-69.36,3.0,75,0,6.51,clear sky,2020-11-02 02:50:58
20,punta arenas,CL,-53.15,-70.92,51.8,76,0,4.7,clear sky,2020-11-02 02:50:59
21,saskylakh,RU,71.92,114.08,-7.29,89,93,10.51,overcast clouds,2020-11-02 02:50:59
22,deputatskiy,RU,69.3,139.9,-14.17,88,38,5.88,scattered clouds,2020-11-02 02:50:59
23,ust-tarka,RU,55.57,75.7,33.17,91,100,10.13,overcast clouds,2020-11-02 02:50:51
24,bethel,US,41.37,-73.41,46.4,61,90,9.17,overcast clouds,2020-11-02 02:47:14
25,roald,NO,62.58,6.13,51.8,57,69,11.41,broken clouds,2020-11-02 02:46:44
26,nikolskoye,RU,59.7,30.79,35.6,93,90,6.71,overcast clouds,2020-11-02 02:50:59
27,new norfolk,AU,-42.78,147.06,81.0,23,100,4.0,overcast clouds,2020-11-02 02:46:34
28,carnarvon,AU,-24.87,113.63,73.4,49,40,16.11,scattered clouds,2020-11-02 02:50:59
29,jamestown,US,42.1,-79.24,35.01,86,90,18.34,overcast clouds,2020-11-02 02:50:59
30,ribeira grande,PT,38.52,-28.7,62.73,75,38,18.81,scattered clouds,2020-11-02 02:51:00
31,talas,TR,38.69,35.55,42.8,70,75,1.03,broken clouds,2020-11-02 02:51:00
32,middelburg,ZA,-25.78,29.46,55.92,80,99,3.09,overcast clouds,2020-11-02 02:51:00
33,bilma,NE,18.69,12.92,66.97,30,0,11.56,clear sky,2020-11-02 02:51:00
34,castro,BR,-24.79,-50.01,50.34,92,41,10.29,scattered clouds,2020-11-02 02:46:39
35,ushuaia,AR,-54.8,-68.3,57.2,54,75,4.7,broken clouds,2020-11-02 02:51:00
36,mindelo,CV,16.89,-24.98,77.0,73,20,12.75,few clouds,2020-11-02 02:51:00
37,port-cartier,CA,50.03,-66.87,39.2,86,100,3.36,overcast clouds,2020-11-02 02:51:00
38,thompson,CA,55.74,-97.86,21.2,92,75,6.42,broken clouds,2020-11-02 02:51:01
39,shihezi,CN,44.3,86.03,43.48,56,0,0.4,clear sky,2020-11-02 02:51:01
40,cape town,ZA,-33.93,18.42,62.6,72,0,10.29,clear sky,2020-11-02 02:51:01
41,tura,IN,25.52,90.22,76.64,83,98,1.77,overcast clouds,2020-11-02 02:51:01
42,faanui,PF,-16.48,-151.75,79.97,81,0,18.32,light rain,2020-11-02 02:51:01
43,atuona,PF,-9.8,-139.03,77.45,79,79,13.65,light rain,2020-11-02 02:51:01
44,busselton,AU,-33.65,115.33,60.01,83,95,4.83,overcast clouds,2020-11-02 02:46:37
45,oriximina,BR,-1.77,-55.87,81.18,65,89,4.12,overcast clouds,2020-11-02 02:51:02
46,albany,US,42.6,-73.97,41.0,73,100,3.0,overcast clouds,2020-11-02 02:47:56
47,cayenne,GF,4.93,-52.33,75.2,100,99,3.36,light rain,2020-11-02 02:51:02
48,ekhabi,RU,53.51,142.97,44.76,93,100,13.69,overcast clouds,2020-11-02 02:51:02
49,tuatapere,NZ,-46.13,167.68,55.99,65,16,11.99,few clouds,2020-11-02 02:50:07
50,basco,PH,20.45,121.97,79.86,80,100,28.86,overcast clouds,2020-11-02 02:51:02
51,hualmay,PE,-11.1,-77.61,60.87,87,20,8.3,few clouds,2020-11-02 02:51:02
52,east london,ZA,-33.02,27.91,64.13,83,34,15.79,scattered clouds,2020-11-02 02:51:02
53,ardmore,US,34.17,-97.14,54.0,75,1,4.85,haze,2020-11-02 02:47:04
54,nemuro,JP,43.32,145.57,62.6,67,75,21.92,light intensity shower rain,2020-11-02 02:51:02
55,grand gaube,MU,-20.01,57.66,71.01,65,63,1.99,broken clouds,2020-11-02 02:46:56
56,lebowakgomo,ZA,-24.2,29.5,57.2,93,67,5.82,broken clouds,2020-11-02 02:51:03
57,veraval,IN,20.9,70.37,81.3,37,0,13.42,clear sky,2020-11-02 02:51:03
58,rosarito,MX,32.33,-117.03,69.8,88,1,5.55,clear sky,2020-11-02 02:51:03
59,surt,LY,31.21,16.59,69.03,62,2,6.67,clear sky,2020-11-02 02:51:03
60,hobyo,SO,5.35,48.53,79.81,77,1,6.17,clear sky,2020-11-02 02:51:04
61,vallenar,CL,-28.57,-70.76,54.95,56,0,1.14,clear sky,2020-11-02 02:51:04
62,klaksvik,FO,62.23,-6.59,44.6,81,31,14.99,scattered clouds,2020-11-02 02:51:04
63,praia da vitoria,PT,38.73,-27.07,62.6,88,75,15.68,broken clouds,2020-11-02 02:51:04
64,kaoma,ZM,-14.78,24.8,64.65,55,0,7.67,clear sky,2020-11-02 02:51:04
65,hit,IQ,33.64,42.83,68.63,25,90,10.16,overcast clouds,2020-11-02 02:51:04
66,hermanus,ZA,-34.42,19.23,61.0,87,91,3.0,overcast clouds,2020-11-02 02:51:04
67,kaitangata,NZ,-46.28,169.85,54.0,59,91,8.01,overcast clouds,2020-11-02 02:51:04
68,hudson bay,CA,52.85,-102.38,36.7,89,93,9.06,overcast clouds,2020-11-02 02:51:05
69,kenai,US,60.55,-151.26,24.01,37,1,28.86,clear sky,2020-11-02 02:51:05
70,the valley,AI,18.22,-63.06,82.99,78,75,12.75,broken clouds,2020-11-02 02:51:05
71,bintulu,MY,3.17,113.03,82.4,88,20,3.36,few clouds,2020-11-02 02:51:05
72,moree,AU,-29.47,149.85,82.4,30,0,11.86,clear sky,2020-11-02 02:51:05
73,saint-augustin,CA,51.23,-58.65,38.17,79,100,16.31,overcast clouds,2020-11-02 02:51:05
74,nadym,RU,65.53,72.52,23.95,97,87,15.77,overcast clouds,2020-11-02 02:51:05
75,longyearbyen,SJ,78.22,15.64,35.6,69,0,26.4,clear sky,2020-11-02 02:51:06
76,north bay,CA,46.32,-79.47,30.99,86,90,26.4,overcast clouds,2020-11-02 02:51:00
77,panguna,PG,-6.32,155.48,81.28,69,29,1.05,light rain,2020-11-02 02:51:06
78,ostrovnoy,RU,68.05,39.51,38.89,91,100,25.37,overcast clouds,2020-11-02 02:51:06
79,sao filipe,CV,14.9,-24.5,78.51,78,94,5.84,overcast clouds,2020-11-02 02:51:06
80,vao,NC,-22.67,167.48,74.7,81,100,14.76,overcast clouds,2020-11-02 02:51:06
81,lebu,CL,-37.62,-73.65,53.28,94,82,7.65,broken clouds,2020-11-02 02:51:06
82,muli,MV,2.92,73.57,82.33,71,20,5.39,few clouds,2020-11-02 02:51:06
83,arraial do cabo,BR,-22.97,-42.03,68.43,71,4,16.91,clear sky,2020-11-02 02:51:06
84,takoradi,GH,4.88,-1.76,77.36,90,67,5.79,broken clouds,2020-11-02 02:51:07
85,santiago del estero,AR,-27.8,-64.26,69.1,37,55,8.37,broken clouds,2020-11-02 02:51:07
86,grindavik,IS,63.84,-22.43,33.8,86,75,6.93,broken clouds,2020-11-02 02:51:07
87,coihaique,CL,-45.58,-72.07,55.4,54,0,3.36,clear sky,2020-11-02 02:51:07
88,geraldton,AU,-28.77,114.6,68.0,68,75,17.22,broken clouds,2020-11-02 02:51:07
89,kompaniyivka,UA,48.25,32.21,45.88,88,100,11.79,light rain,2020-11-02 02:51:07
90,mar del plata,AR,-38.0,-57.56,60.01,93,0,4.7,clear sky,2020-11-02 02:48:15
91,pilar,BR,-9.6,-35.96,75.2,88,0,6.93,clear sky,2020-11-02 02:51:08
92,kupang,ID,-10.17,123.58,88.72,52,41,2.68,scattered clouds,2020-11-02 02:51:08
93,shimoda,JP,34.67,138.95,69.8,73,75,12.75,broken clouds,2020-11-02 02:51:08
94,alofi,NU,-19.06,-169.92,78.8,83,55,14.99,broken clouds,2020-11-02 02:51:08
95,san quintin,MX,30.48,-115.95,66.31,68,0,5.26,clear sky,2020-11-02 02:51:08
96,hellin,ES,38.51,-1.7,56.46,57,0,1.79,clear sky,2020-11-02 02:51:08
97,barrow,US,71.29,-156.79,26.6,68,40,19.46,scattered clouds,2020-11-02 02:51:08
98,alice springs,AU,-23.7,133.88,91.4,11,0,10.29,clear sky,2020-11-02 02:49:15
99,khatanga,RU,71.97,102.5,6.57,95,100,6.73,overcast clouds,2020-11-02 02:51:08
100,arlit,NE,18.74,7.39,69.3,28,0,5.32,clear sky,2020-11-02 02:51:09
101,tasiilaq,GL,65.61,-37.64,24.8,73,0,4.7,clear sky,2020-11-02 02:51:09
102,bat yam,IL,32.02,34.75,71.6,73,40,5.82,scattered clouds,2020-11-02 02:51:09
103,bambous virieux,MU,-20.34,57.76,71.01,93,40,4.7,scattered clouds,2020-11-02 02:51:09
104,maceio,BR,-9.67,-35.74,75.2,88,0,6.93,clear sky,2020-11-02 02:51:09
105,khasan,RU,42.43,130.64,47.97,45,0,15.19,clear sky,2020-11-02 02:51:09
106,teguise,ES,29.06,-13.56,68.0,82,0,6.93,clear sky,2020-11-02 02:51:09
107,mataura,NZ,-46.19,168.86,55.99,65,53,11.99,broken clouds,2020-11-02 02:51:09
108,hamilton,US,39.18,-84.53,37.99,44,40,16.11,scattered clouds,2020-11-02 02:48:42
109,tilichiki,RU,60.47,166.1,29.53,94,84,3.09,broken clouds,2020-11-02 02:51:10
110,coari,BR,-4.08,-63.14,76.57,79,67,2.66,broken clouds,2020-11-02 02:49:25
111,erzin,TR,36.96,36.2,66.99,70,65,4.0,broken clouds,2020-11-02 02:51:10
112,pacifica,US,37.61,-122.49,66.0,55,75,11.41,broken clouds,2020-11-02 02:51:10
113,ahuimanu,US,21.44,-157.84,80.6,61,75,5.82,light rain,2020-11-02 02:51:10
114,lafia,NG,8.48,8.52,74.12,68,91,1.95,overcast clouds,2020-11-02 02:51:10
115,mahebourg,MU,-20.41,57.7,64.4,93,40,4.7,scattered clouds,2020-11-02 02:47:34
116,ossora,RU,59.24,163.07,34.72,86,100,2.33,overcast clouds,2020-11-02 02:51:10
117,bwanga,TZ,-3.03,31.76,65.53,83,100,3.65,light rain,2020-11-02 02:51:10
118,port elizabeth,ZA,-33.92,25.57,62.6,93,40,10.29,scattered clouds,2020-11-02 02:51:11
119,amherstburg,CA,42.12,-83.05,35.6,55,90,24.16,overcast clouds,2020-11-02 02:51:11
120,souillac,MU,-20.52,57.52,64.4,93,40,4.7,scattered clouds,2020-11-02 02:51:11
121,laguna,US,38.42,-121.42,68.0,45,1,3.02,clear sky,2020-11-02 02:51:11
122,bonthe,SL,7.53,-12.51,77.92,87,2,6.8,moderate rain,2020-11-02 02:51:11
123,tuktoyaktuk,CA,69.45,-133.04,12.2,92,90,16.11,light snow,2020-11-02 02:51:11
124,hukuntsi,BW,-24.0,21.75,71.08,53,36,10.13,scattered clouds,2020-11-02 02:51:11
125,aripuana,BR,-9.17,-60.63,70.77,98,96,1.54,overcast clouds,2020-11-02 02:49:01
126,coquimbo,CL,-29.95,-71.34,55.4,87,40,2.24,scattered clouds,2020-11-02 02:51:11
127,wattegama,LK,6.8,81.48,82.38,71,100,1.07,overcast clouds,2020-11-02 02:51:12
128,maltahohe,NA,-24.83,16.98,64.54,26,41,8.37,scattered clouds,2020-11-02 02:51:12
129,carutapera,BR,-1.2,-46.02,77.88,84,25,5.66,scattered clouds,2020-11-02 02:51:12
130,suamico,US,44.63,-88.04,28.4,50,1,8.05,clear sky,2020-11-02 02:51:12
131,chuy,UY,-33.7,-53.46,52.21,86,5,3.53,clear sky,2020-11-02 02:51:12
132,iqaluit,CA,63.75,-68.51,15.8,78,90,4.7,light snow,2020-11-02 02:51:12
133,saint anthony,US,45.02,-93.22,32.0,58,1,6.93,clear sky,2020-11-02 02:51:12
134,georgetown,MY,5.41,100.34,82.4,83,20,6.93,few clouds,2020-11-02 02:48:42
135,carauari,BR,-4.88,-66.9,72.91,93,30,2.01,moderate rain,2020-11-02 02:51:12
136,sao joao da barra,BR,-21.64,-41.05,67.12,80,85,18.39,overcast clouds,2020-11-02 02:51:12
137,emerald,AU,-23.53,148.17,91.99,21,0,8.05,clear sky,2020-11-02 02:51:13
138,da nang,VN,16.07,108.22,80.6,74,40,3.36,scattered clouds,2020-11-02 02:51:13
139,codrington,AU,-38.27,141.97,74.89,62,4,10.76,clear sky,2020-11-02 02:46:46
140,esperance,AU,-33.87,121.9,80.6,65,75,16.11,light rain,2020-11-02 02:51:13
141,mount gambier,AU,-37.83,140.77,80.6,32,43,14.99,scattered clouds,2020-11-02 02:51:13
142,muros,ES,42.78,-9.06,66.99,89,100,15.99,overcast clouds,2020-11-02 02:51:13
143,patacamaya,BO,-17.23,-67.92,43.97,76,70,9.31,broken clouds,2020-11-02 02:51:13
144,smithers,CA,54.78,-127.17,50.0,76,75,9.17,broken clouds,2020-11-02 02:51:13
145,hilo,US,19.73,-155.09,84.2,62,40,4.7,scattered clouds,2020-11-02 02:51:14
146,manitouwadge,CA,49.12,-85.84,21.2,67,0,1.12,clear sky,2020-11-02 02:51:14
147,college,US,64.86,-147.8,-0.99,83,20,2.21,few clouds,2020-11-02 02:51:14
148,salalah,OM,17.02,54.09,71.6,46,0,3.36,clear sky,2020-11-02 02:51:14
149,kanniyakumari,IN,8.08,77.57,81.88,70,42,7.07,scattered clouds,2020-11-02 02:51:14
150,kholodnyy,RU,62.72,147.95,4.21,88,90,2.91,overcast clouds,2020-11-02 02:51:14
151,altay,CN,47.87,88.12,37.74,61,54,2.19,broken clouds,2020-11-02 02:51:14
152,takhtamygda,RU,54.1,123.57,12.18,83,100,12.86,overcast clouds,2020-11-02 02:51:14
153,vanimo,PG,-2.67,141.3,86.76,62,76,6.71,light rain,2020-11-02 02:51:14
154,bathsheba,BB,13.22,-59.52,82.4,78,40,23.04,scattered clouds,2020-11-02 02:46:45
155,boden,SE,65.83,21.69,44.6,93,100,23.04,overcast clouds,2020-11-02 02:51:15
156,samarai,PG,-10.62,150.67,83.84,74,59,10.8,broken clouds,2020-11-02 02:51:15
157,tatvan,TR,38.51,42.28,43.48,75,99,2.57,overcast clouds,2020-11-02 02:51:15
158,half moon bay,US,37.46,-122.43,68.0,52,5,5.32,clear sky,2020-11-02 02:46:37
159,lobito,AO,-12.35,13.55,75.85,87,35,4.05,scattered clouds,2020-11-02 02:51:15
160,enumclaw,US,47.2,-121.99,50.0,89,0,3.8,clear sky,2020-11-02 02:51:15
161,kapaa,US,22.08,-159.32,80.6,74,90,11.41,overcast clouds,2020-11-02 02:46:37
162,camacha,PT,33.08,-16.33,66.2,88,20,4.27,few clouds,2020-11-02 02:51:15
163,pevek,RU,69.7,170.31,13.98,97,100,8.39,overcast clouds,2020-11-02 02:46:48
164,tiksi,RU,71.69,128.87,-5.66,90,0,6.15,clear sky,2020-11-02 02:51:16
165,liverpool,GB,53.41,-2.98,62.6,77,75,25.28,broken clouds,2020-11-02 02:51:16
166,mayskiy,RU,47.69,40.1,53.6,93,40,8.95,scattered clouds,2020-11-02 02:51:16
167,te anau,NZ,-45.42,167.72,60.31,39,14,1.9,few clouds,2020-11-02 02:51:16
168,hunchun,CN,42.87,130.36,46.35,45,0,12.28,clear sky,2020-11-02 02:51:16
169,dunedin,NZ,-45.87,170.5,55.0,65,36,15.99,scattered clouds,2020-11-02 02:51:16
170,clyde river,CA,70.47,-68.59,8.6,78,1,16.11,clear sky,2020-11-02 02:51:16
171,dodge city,US,37.75,-100.02,48.2,57,1,16.11,clear sky,2020-11-02 02:46:24
172,lagoa,PT,39.05,-27.98,61.84,70,44,17.34,scattered clouds,2020-11-02 02:51:16
173,kawalu,ID,-7.38,108.21,82.49,67,91,5.73,overcast clouds,2020-11-02 02:51:16
174,nortelandia,BR,-14.45,-56.8,78.44,61,94,0.29,overcast clouds,2020-11-02 02:51:17
175,san jose,US,37.34,-121.89,66.0,56,41,0.58,scattered clouds,2020-11-02 02:47:29
176,oistins,BB,13.07,-59.53,82.4,78,40,23.04,scattered clouds,2020-11-02 02:51:17
177,sisimiut,GL,66.94,-53.67,27.48,90,100,9.62,light snow,2020-11-02 02:51:17
178,saint-philippe,RE,-21.36,55.77,69.8,64,90,4.7,overcast clouds,2020-11-02 02:51:17
179,kavieng,PG,-2.57,150.8,86.25,64,9,1.54,clear sky,2020-11-02 02:51:17
180,dikson,RU,73.51,80.55,18.46,98,89,8.95,overcast clouds,2020-11-02 02:46:37
181,camopi,GF,3.17,-52.32,73.49,95,14,2.28,few clouds,2020-11-02 02:51:17
182,chokurdakh,RU,70.63,147.92,-1.43,93,100,12.73,light snow,2020-11-02 02:51:17
183,morehead,US,37.27,-87.18,42.8,38,1,5.82,clear sky,2020-11-02 02:51:17
184,upernavik,GL,72.79,-56.15,16.57,92,99,4.0,overcast clouds,2020-11-02 02:51:18
185,dubbo,AU,-32.25,148.62,75.2,38,47,10.29,scattered clouds,2020-11-02 02:50:10
186,puerto quijarro,BO,-17.78,-57.77,74.46,55,32,3.44,scattered clouds,2020-11-02 02:51:18
187,urusha,RU,54.05,122.9,11.19,82,100,10.87,overcast clouds,2020-11-02 02:51:18
188,kasempa,ZM,-13.46,25.83,65.62,58,0,8.57,clear sky,2020-11-02 02:51:18
189,kihei,US,20.79,-156.47,84.2,62,40,11.41,scattered clouds,2020-11-02 02:47:57
190,moron,AR,-34.65,-58.62,66.99,45,0,1.01,clear sky,2020-11-02 02:51:18
191,birin,NP,26.89,88.07,73.4,94,40,2.24,scattered clouds,2020-11-02 02:51:18
192,riyadh,SA,24.69,46.72,59.0,47,0,4.16,clear sky,2020-11-02 02:50:44
193,abalak,RU,58.13,68.59,25.57,99,45,5.48,scattered clouds,2020-11-02 02:51:18
194,provideniya,RU,64.38,-173.3,26.6,63,20,4.47,few clouds,2020-11-02 02:51:18
195,baghdad,IQ,33.34,44.4,69.8,37,75,11.41,broken clouds,2020-11-02 02:51:19
196,hofn,IS,64.25,-15.21,35.8,76,0,14.7,clear sky,2020-11-02 02:51:19
197,isangel,VU,-19.55,169.27,86.0,66,75,11.41,broken clouds,2020-11-02 02:51:19
198,ozinki,RU,51.18,49.68,40.75,71,31,8.23,scattered clouds,2020-11-02 02:51:19
199,irece,BR,-11.3,-41.86,70.47,86,66,4.52,light rain,2020-11-02 02:51:19
200,oksfjord,NO,70.24,22.35,42.8,81,98,27.51,overcast clouds,2020-11-02 02:51:19
201,diamantino,BR,-14.41,-56.45,77.5,71,77,3.06,broken clouds,2020-11-02 02:51:19
202,axim,GH,4.87,-2.24,77.47,89,14,6.33,few clouds,2020-11-02 02:51:19
203,caravelas,BR,-17.71,-39.25,71.47,87,100,10.33,overcast clouds,2020-11-02 02:51:20
204,mosquera,CO,4.71,-74.23,57.2,82,75,4.7,broken clouds,2020-11-02 02:51:20
205,channel-port aux basques,CA,47.57,-59.14,45.27,82,93,17.18,overcast clouds,2020-11-02 02:51:20
206,canutama,BR,-6.53,-64.38,75.52,91,85,1.05,overcast clouds,2020-11-02 02:51:20
207,ponta do sol,PT,32.67,-17.1,66.99,77,40,4.7,scattered clouds,2020-11-02 02:51:20
208,tenenkou,ML,14.46,-4.92,78.35,17,6,7.85,clear sky,2020-11-02 02:51:20
209,kodiak,US,57.79,-152.41,30.2,42,90,21.92,light snow,2020-11-02 02:51:20
210,lavrentiya,RU,65.58,-171.0,22.1,87,21,6.89,few clouds,2020-11-02 02:46:56
211,richards bay,ZA,-28.78,32.04,64.15,95,100,6.82,moderate rain,2020-11-02 02:51:20
212,stephenville,US,32.22,-98.2,55.99,58,1,8.03,clear sky,2020-11-02 02:51:20
213,abong mbang,CM,3.98,13.18,67.48,97,100,1.7,light rain,2020-11-02 02:51:21
214,whitehorse,CA,60.72,-135.05,5.0,77,90,14.99,light snow,2020-11-02 02:49:58
215,san matias,BO,-16.37,-58.4,76.14,56,92,4.88,overcast clouds,2020-11-02 02:51:21
216,rock sound,BS,24.9,-76.2,81.79,78,25,9.75,scattered clouds,2020-11-02 02:47:17
217,tinqueux,FR,49.25,3.98,64.4,82,90,16.11,overcast clouds,2020-11-02 02:51:21
218,ongandjera,NA,-17.88,15.07,77.77,21,89,7.96,overcast clouds,2020-11-02 02:47:02
219,lompoc,US,34.64,-120.46,64.99,72,1,5.82,clear sky,2020-11-02 02:51:21
220,qasigiannguit,GL,68.82,-51.19,19.4,67,100,9.17,overcast clouds,2020-11-02 02:51:21
221,gomez,PA,8.57,-82.73,80.01,100,100,1.25,moderate rain,2020-11-02 02:51:21
222,nizhniy tsasuchey,RU,50.52,115.13,22.08,80,34,16.22,scattered clouds,2020-11-02 02:51:22
223,lorengau,PG,-2.02,147.27,86.16,68,34,4.74,scattered clouds,2020-11-02 02:51:22
224,kavaratti,IN,10.57,72.64,81.01,71,0,1.48,clear sky,2020-11-02 02:51:22
225,husavik,IS,66.04,-17.34,39.2,51,90,6.93,overcast clouds,2020-11-02 02:51:22
226,kaka,TM,37.35,59.61,61.83,29,4,4.99,clear sky,2020-11-02 02:51:22
227,sid,RS,45.13,19.23,48.99,82,90,1.99,overcast clouds,2020-11-02 02:51:22
228,machico,PT,32.7,-16.77,66.2,77,40,4.7,scattered clouds,2020-11-02 02:51:22
229,newport,GB,51.59,-3.0,62.01,98,100,7.0,overcast clouds,2020-11-02 02:51:22
230,rodrigues alves,BR,-7.74,-72.65,75.58,76,88,2.1,overcast clouds,2020-11-02 02:51:22
231,tautira,PF,-17.73,-149.15,84.2,62,40,9.17,scattered clouds,2020-11-02 02:51:22
232,dinguiraye,GN,11.3,-10.72,70.38,53,0,1.68,clear sky,2020-11-02 02:51:22
233,sungai besar,MY,3.67,100.99,86.0,79,20,3.36,few clouds,2020-11-02 02:51:23
234,shingu,JP,33.73,135.98,66.2,93,75,6.93,mist,2020-11-02 02:51:23
235,mehamn,NO,71.04,27.85,42.78,81,100,27.4,overcast clouds,2020-11-02 02:47:06
236,atar,MR,20.52,-13.05,79.12,20,100,8.68,overcast clouds,2020-11-02 02:51:23
237,puerto cabezas,NI,14.04,-83.39,77.0,94,75,6.93,broken clouds,2020-11-02 02:51:23
238,shwebo,MM,22.57,95.7,79.2,85,84,4.43,broken clouds,2020-11-02 02:51:23
239,qunduz,AF,36.73,68.86,54.63,34,35,1.52,scattered clouds,2020-11-02 02:51:23
240,pisco,PE,-13.7,-76.22,64.4,82,90,13.87,overcast clouds,2020-11-02 02:51:24
241,praia,CV,14.92,-23.51,75.2,88,20,6.93,few clouds,2020-11-02 02:47:27
242,cassilandia,BR,-19.11,-51.73,69.46,58,0,5.79,clear sky,2020-11-02 02:51:24
243,hasaki,JP,35.73,140.83,70.0,73,75,10.29,light rain,2020-11-02 02:46:33
244,kashi,CN,39.45,75.98,41.0,41,0,8.95,clear sky,2020-11-02 02:51:24
245,aklavik,CA,68.22,-135.01,12.2,92,61,2.24,broken clouds,2020-11-02 02:51:24
246,oparino,RU,59.85,48.28,24.51,98,15,1.57,few clouds,2020-11-02 02:51:24
247,north bend,US,43.41,-124.22,53.01,87,1,3.78,clear sky,2020-11-02 02:51:24
248,induno olona,IT,45.85,8.84,48.99,100,99,2.24,overcast clouds,2020-11-02 02:51:24
249,kieta,PG,-6.22,155.63,86.52,61,2,3.8,light rain,2020-11-02 02:51:24
250,rabo de peixe,PT,37.8,-25.58,62.6,82,20,4.7,few clouds,2020-11-02 02:51:25
251,kurilsk,RU,45.23,147.88,52.88,91,100,15.73,light rain,2020-11-02 02:51:25
252,okoneshnikovo,RU,54.84,75.08,34.75,85,97,10.51,overcast clouds,2020-11-02 02:51:25
253,dakoro,NE,14.51,6.76,73.99,23,0,11.18,clear sky,2020-11-02 02:51:25
254,palauig,PH,15.44,119.9,83.08,71,100,12.55,overcast clouds,2020-11-02 02:51:25
255,bechem,GH,7.09,-2.02,70.18,97,13,1.41,light rain,2020-11-02 02:51:25
256,bafq,IR,31.61,55.41,55.11,33,0,4.43,clear sky,2020-11-02 02:51:25
257,nushki,PK,29.55,66.02,52.29,30,0,0.51,clear sky,2020-11-02 02:51:26
258,poum,NC,-20.23,164.02,78.84,75,59,11.3,broken clouds,2020-11-02 02:46:56
259,krasnoselkup,RU,65.7,82.47,21.07,97,95,15.12,overcast clouds,2020-11-02 02:51:26
260,luderitz,NA,-26.65,15.16,59.85,75,100,4.43,overcast clouds,2020-11-02 02:51:26
261,ried,DE,48.48,11.26,59.0,77,100,10.29,overcast clouds,2020-11-02 02:51:26
262,tran,BG,42.84,22.65,32.0,80,0,2.24,clear sky,2020-11-02 02:51:26
263,iquitos,PE,-3.75,-73.25,72.88,92,39,1.77,scattered clouds,2020-11-02 02:51:26
264,octeville,FR,49.63,-1.64,61.0,93,90,24.16,overcast clouds,2020-11-02 02:51:26
265,san cristobal,VE,7.77,-72.22,66.63,92,99,2.08,light rain,2020-11-02 02:51:26
266,naryan-mar,RU,67.67,53.09,32.68,96,96,9.31,overcast clouds,2020-11-02 02:51:26
267,ostersund,SE,63.18,14.64,45.0,87,100,20.8,light rain,2020-11-02 02:51:27
268,butaritari,KI,3.07,172.79,82.24,78,62,10.49,light rain,2020-11-02 02:46:43
269,victoria,HK,22.29,114.16,80.01,60,100,1.01,overcast clouds,2020-11-02 02:51:04
270,nanortalik,GL,60.14,-45.24,31.95,90,0,38.27,clear sky,2020-11-02 02:51:27
271,leningradskiy,RU,69.38,178.42,16.92,83,82,4.45,broken clouds,2020-11-02 02:51:27
272,port blair,IN,11.67,92.75,83.3,71,19,5.32,few clouds,2020-11-02 02:51:11
273,sao sepe,BR,-30.16,-53.57,62.6,67,0,13.87,clear sky,2020-11-02 02:51:27
274,minab,IR,27.15,57.08,64.4,77,0,6.93,clear sky,2020-11-02 02:51:27
275,gizo,SB,-8.1,156.84,85.33,69,29,1.92,light rain,2020-11-02 02:51:27
276,hithadhoo,MV,-0.6,73.08,82.17,74,100,7.96,moderate rain,2020-11-02 02:51:27
277,zhezkazgan,KZ,47.8,67.71,42.1,52,100,6.06,overcast clouds,2020-11-02 02:51:28
278,leh,IN,34.17,77.58,32.11,66,0,1.52,clear sky,2020-11-02 02:51:28
279,bakchar,RU,57.02,82.07,31.66,97,96,6.87,overcast clouds,2020-11-02 02:51:28
280,yulara,AU,-25.24,130.99,95.0,10,0,11.41,clear sky,2020-11-02 02:51:28
281,luis correia,BR,-2.88,-41.67,79.61,83,23,10.76,few clouds,2020-11-02 02:50:10
282,santa maria,BR,-29.68,-53.81,62.6,67,0,13.87,clear sky,2020-11-02 02:51:28
283,petatlan,MX,17.52,-101.27,77.63,79,30,2.93,scattered clouds,2020-11-02 02:51:28
284,khalkhal,IR,37.62,48.53,46.49,50,0,4.05,clear sky,2020-11-02 02:51:28
285,heidenreichstein,AT,48.87,15.12,55.0,91,97,1.01,overcast clouds,2020-11-02 02:51:28
286,kamina,CD,-8.74,24.99,63.27,88,1,2.33,clear sky,2020-11-02 02:51:28
287,mamanguape,BR,-6.84,-35.13,78.8,83,75,5.82,broken clouds,2020-11-02 02:51:29
288,nichinan,JP,31.6,131.37,66.2,93,75,4.7,mist,2020-11-02 02:51:29
289,sur,OM,22.57,59.53,73.38,25,0,1.99,clear sky,2020-11-02 02:46:47
290,manzil salim,TN,35.86,8.48,42.8,81,0,4.7,clear sky,2020-11-02 02:51:29
291,bud,US,39.45,-86.18,35.01,59,1,5.82,clear sky,2020-11-02 02:51:29
292,macau,MO,22.2,113.55,80.6,69,100,14.99,overcast clouds,2020-11-02 02:51:30
293,nouakchott,MR,18.09,-15.98,75.2,57,100,10.29,overcast clouds,2020-11-02 02:51:30
294,zhigansk,RU,66.77,123.37,2.75,92,100,22.01,overcast clouds,2020-11-02 02:51:30
295,kutum,SD,14.2,24.67,68.9,35,0,16.24,clear sky,2020-11-02 02:51:30
296,vila,PT,42.03,-8.16,59.0,95,99,8.99,overcast clouds,2020-11-02 02:51:30
297,matara,LK,5.95,80.54,83.53,68,32,6.29,scattered clouds,2020-11-02 02:51:30
298,bejar,ES,40.39,-5.76,57.0,87,86,1.48,overcast clouds,2020-11-02 02:48:46
299,estevan,CA,49.13,-102.98,42.8,60,1,10.29,clear sky,2020-11-02 02:50:57
300,fort nelson,CA,58.81,-122.7,14.0,78,90,11.41,light snow,2020-11-02 02:51:30
301,xuddur,SO,4.12,43.89,73.08,84,100,6.58,overcast clouds,2020-11-02 02:51:30
302,saint-pierre,RE,-21.34,55.48,69.8,64,90,4.7,overcast clouds,2020-11-02 02:51:30
303,san patricio,US,28.02,-97.52,66.2,93,1,5.82,clear sky,2020-11-02 02:51:31
304,muisne,EC,0.6,-80.03,75.34,85,93,8.01,overcast clouds,2020-11-02 02:51:31
305,baglung,NP,28.27,83.59,73.58,41,0,1.77,clear sky,2020-11-02 02:51:31
306,chapais,CA,49.78,-74.85,32.0,99,90,5.82,overcast clouds,2020-11-02 02:47:04
307,ardakan,IR,32.31,54.02,50.0,25,0,4.7,clear sky,2020-11-02 02:51:31
308,avera,US,33.19,-82.53,59.0,67,1,11.41,clear sky,2020-11-02 02:51:31
309,acapulco,MX,16.86,-99.89,80.58,77,87,5.7,overcast clouds,2020-11-02 02:51:31
310,kalaleh,IR,37.38,55.49,59.0,62,0,3.67,clear sky,2020-11-02 02:51:31
311,puerto madryn,AR,-42.77,-65.04,73.89,28,96,26.04,overcast clouds,2020-11-02 02:48:49
312,sabzevar,IR,36.21,57.68,52.93,42,0,4.07,clear sky,2020-11-02 02:51:31
313,obo,CF,5.4,26.49,68.83,94,63,2.44,broken clouds,2020-11-02 02:51:32
314,waipawa,NZ,-41.41,175.52,55.99,93,100,16.11,light rain,2020-11-02 02:51:32
315,tual,ID,-5.67,132.75,83.37,75,95,12.91,overcast clouds,2020-11-02 02:51:32
316,pringsewu,ID,-5.36,104.97,86.4,60,76,6.22,broken clouds,2020-11-02 02:51:32
317,ixtapa,MX,20.7,-105.2,75.74,85,24,2.39,few clouds,2020-11-02 02:51:32
318,altamont,US,42.21,-121.74,53.01,45,1,3.36,clear sky,2020-11-02 02:51:32
319,turukhansk,RU,65.82,87.98,22.51,98,100,14.05,light snow,2020-11-02 02:51:32
320,jumla,NP,29.27,82.18,57.56,40,0,3.09,clear sky,2020-11-02 02:51:32
321,alihe,CN,50.57,123.72,17.67,84,100,10.11,overcast clouds,2020-11-02 02:51:32
322,pinar del rio,CU,22.42,-83.7,75.7,91,25,9.86,scattered clouds,2020-11-02 02:48:08
323,andra,RU,62.51,65.89,25.11,96,100,7.58,overcast clouds,2020-11-02 02:51:32
324,kochi,IN,9.94,76.26,78.8,94,40,3.36,mist,2020-11-02 02:51:33
325,fortuna,US,40.6,-124.16,51.01,93,1,5.82,clear sky,2020-11-02 02:51:33
326,makakilo city,US,21.35,-158.09,82.4,65,40,9.17,light rain,2020-11-02 02:51:33
327,bengkulu,ID,-3.8,102.27,80.69,79,100,0.56,overcast clouds,2020-11-02 02:46:54
328,fairbanks,US,64.84,-147.72,-0.99,83,1,2.3,clear sky,2020-11-02 02:51:26
329,selikhino,RU,50.37,137.5,40.05,68,3,13.91,clear sky,2020-11-02 02:51:33
330,zlitan,LY,32.47,14.57,66.76,59,0,3.62,clear sky,2020-11-02 02:51:33
331,anadyr,RU,64.75,177.48,14.0,85,75,4.47,light snow,2020-11-02 02:51:33
332,broome,US,42.25,-75.83,35.01,74,75,20.8,broken clouds,2020-11-02 02:51:33
333,balikpapan,ID,-1.27,116.83,84.2,74,20,4.7,few clouds,2020-11-02 02:51:33
334,lasa,IT,46.62,10.7,48.2,81,75,5.82,broken clouds,2020-11-02 02:51:34
335,alta floresta,BR,-9.88,-56.09,70.52,98,100,3.09,overcast clouds,2020-11-02 02:51:34
336,simao,CN,22.79,100.97,71.64,81,33,2.8,scattered clouds,2020-11-02 02:51:34
337,tiznit,MA,29.58,-9.5,66.99,29,0,3.6,clear sky,2020-11-02 02:51:34
338,rawlins,US,41.79,-107.24,48.2,29,1,6.93,clear sky,2020-11-02 02:51:34
339,bull savanna,JM,17.89,-77.59,75.0,92,100,11.56,overcast clouds,2020-11-02 02:51:34
340,lopsmarka,NO,67.31,14.45,53.6,54,75,23.04,broken clouds,2020-11-02 02:51:34
341,umuahia,NG,5.53,7.49,72.64,99,100,3.42,overcast clouds,2020-11-02 02:51:34
342,atambua,ID,-9.11,124.89,87.64,46,87,3.38,overcast clouds,2020-11-02 02:46:47
343,vila velha,BR,-20.33,-40.29,69.8,77,90,16.11,overcast clouds,2020-11-02 02:50:42
344,cumana,VE,10.46,-64.18,78.8,94,22,10.29,few clouds,2020-11-02 02:51:34
345,hami,CN,42.8,93.45,50.05,40,12,6.62,few clouds,2020-11-02 02:51:34
346,ambilobe,MG,-13.2,49.05,71.78,65,86,6.85,overcast clouds,2020-11-02 02:51:35
347,sargur,IN,11.98,76.42,74.21,78,7,2.19,clear sky,2020-11-02 02:51:35
348,quatre cocos,MU,-20.21,57.76,71.01,93,40,4.7,scattered clouds,2020-11-02 02:51:35
349,cabinda,AO,-5.55,12.2,76.87,89,98,0.78,overcast clouds,2020-11-02 02:51:35
350,asau,RO,46.43,26.4,39.0,85,4,5.68,clear sky,2020-11-02 02:51:35
351,kahului,US,20.89,-156.47,84.2,62,40,11.41,scattered clouds,2020-11-02 02:51:35
352,lodwar,KE,3.12,35.6,80.62,53,91,15.3,overcast clouds,2020-11-02 02:51:35
353,road town,VG,18.42,-64.62,80.01,89,10,3.0,clear sky,2020-11-02 02:51:35
354,airai,TL,-8.93,125.41,79.88,42,97,4.05,overcast clouds,2020-11-02 02:51:35
355,sile,TR,41.18,29.61,42.8,93,0,4.63,clear sky,2020-11-02 02:51:35
356,ojinaga,MX,29.57,-104.42,69.8,30,1,5.82,clear sky,2020-11-02 02:51:36
357,imbituba,BR,-28.24,-48.67,62.6,88,75,8.05,broken clouds,2020-11-02 02:51:36
358,kidal,ML,18.44,1.41,72.55,24,12,13.49,few clouds,2020-11-02 02:51:36
359,shawnee,US,39.05,-95.77,39.2,51,1,3.42,clear sky,2020-11-02 02:51:36
360,bulancak,TR,40.94,38.23,59.0,93,75,9.48,broken clouds,2020-11-02 02:51:36
361,marawi,PH,8.0,124.29,87.01,64,92,5.99,overcast clouds,2020-11-02 02:46:47
362,ryotsu,JP,38.08,138.43,57.2,100,75,9.17,light intensity shower rain,2020-11-02 02:51:36
363,saldanha,ZA,-33.01,17.94,62.6,67,0,6.93,clear sky,2020-11-02 02:51:36
364,ballitoville,ZA,-29.54,31.21,60.8,93,90,6.93,heavy intensity rain,2020-11-02 02:51:36
365,nettuno,IT,41.48,12.68,57.99,94,100,3.04,overcast clouds,2020-11-02 02:51:36
366,maniitsoq,GL,65.42,-52.9,23.27,95,99,9.46,overcast clouds,2020-11-02 02:51:37
367,srednekolymsk,RU,67.45,153.68,-3.41,91,56,7.94,broken clouds,2020-11-02 02:51:37
368,cherskiy,RU,68.75,161.3,1.44,92,99,5.26,overcast clouds,2020-11-02 02:51:37
369,zelenoborskiy,RU,66.84,32.36,39.63,85,100,14.45,overcast clouds,2020-11-02 02:51:37
370,quang ngai,VN,15.12,108.8,79.45,75,85,11.12,light rain,2020-11-02 02:47:16
371,luganville,VU,-15.53,167.17,86.0,70,40,11.41,scattered clouds,2020-11-02 02:51:37
372,kefamenanu,ID,-9.45,124.48,92.98,29,57,13.13,broken clouds,2020-11-02 02:51:37
373,cheremkhovo,RU,53.16,103.07,16.83,91,31,10.16,scattered clouds,2020-11-02 02:51:37
374,bilibino,RU,68.05,166.44,9.09,93,100,1.32,overcast clouds,2020-11-02 02:51:37
375,kushiro,JP,42.98,144.37,57.2,93,75,12.75,light intensity shower rain,2020-11-02 02:51:38
376,hervey bay,AU,-25.3,152.85,80.01,61,3,8.01,clear sky,2020-11-02 02:51:38
377,prince rupert,CA,54.32,-130.32,51.8,71,90,23.04,moderate rain,2020-11-02 02:51:38
378,guozhen,CN,34.37,107.36,61.52,28,15,2.01,few clouds,2020-11-02 02:51:38
379,nara,JP,34.69,135.8,62.6,88,75,3.36,light intensity shower rain,2020-11-02 02:51:38
380,nome,US,64.5,-165.41,19.4,79,1,4.76,clear sky,2020-11-02 02:51:38
381,vestmannaeyjar,IS,63.44,-20.27,37.94,74,34,15.93,scattered clouds,2020-11-02 02:51:38
382,mandalgovi,MN,45.76,106.27,26.53,76,0,9.44,clear sky,2020-11-02 02:51:38
383,kruisfontein,ZA,-34.0,24.73,64.0,83,14,4.0,few clouds,2020-11-02 02:51:38
384,torbay,CA,47.67,-52.73,37.99,80,5,14.99,clear sky,2020-11-02 02:51:38
385,viedma,AR,-40.81,-63.0,62.01,56,0,14.63,clear sky,2020-11-02 02:51:39
386,eureka,US,40.8,-124.16,51.01,93,1,1.45,clear sky,2020-11-02 02:51:39
387,port lincoln,AU,-34.73,135.87,77.54,38,62,13.56,broken clouds,2020-11-02 02:48:11
388,ulaanbaatar,MN,47.91,106.88,14.0,78,0,2.24,clear sky,2020-11-02 02:50:30
389,havre-saint-pierre,CA,50.23,-63.6,42.8,81,90,11.41,overcast clouds,2020-11-02 02:51:39
390,kazerun,IR,29.62,51.65,51.75,46,0,1.66,clear sky,2020-11-02 02:51:39
391,dingle,PH,11.0,122.67,81.27,84,81,12.35,light rain,2020-11-02 02:51:39
392,evensk,RU,61.95,159.23,24.22,91,100,2.73,overcast clouds,2020-11-02 02:51:39
393,chapadinha,BR,-3.74,-43.36,75.49,87,79,3.02,broken clouds,2020-11-02 02:51:39
394,bandarbeyla,SO,9.49,50.81,76.51,76,0,17.65,clear sky,2020-11-02 02:47:15
395,tecoanapa,MX,16.52,-98.75,80.31,81,6,5.53,clear sky,2020-11-02 02:51:39
396,omboue,GA,-1.57,9.26,75.78,91,100,4.29,overcast clouds,2020-11-02 02:51:40
397,saint-georges,GD,12.06,-61.75,78.8,88,75,6.93,broken clouds,2020-11-02 02:51:40
398,taganak,PH,6.08,118.3,84.2,79,20,3.36,heavy intensity rain,2020-11-02 02:51:40
399,jiblah,YE,13.92,44.15,53.96,41,0,3.51,clear sky,2020-11-02 02:51:40
400,vanderhoof,CA,54.02,-124.02,42.01,85,100,6.31,overcast clouds,2020-11-02 02:51:40
401,severo-kurilsk,RU,50.68,156.12,43.66,75,18,12.84,few clouds,2020-11-02 02:51:40
402,russell,US,32.35,-85.2,62.6,62,1,9.17,clear sky,2020-11-02 02:47:08
403,margate,GB,51.38,1.39,63.0,86,100,11.01,light rain,2020-11-02 02:51:40
404,maua,BR,-23.67,-46.46,57.2,82,90,10.29,overcast clouds,2020-11-02 02:50:44
405,petropavlovskoye,RU,52.07,84.11,36.68,78,74,3.98,broken clouds,2020-11-02 02:51:40
406,seguin,US,29.57,-97.96,64.0,51,1,9.17,clear sky,2020-11-02 02:50:34
407,taoudenni,ML,22.68,-3.98,75.31,20,100,14.63,overcast clouds,2020-11-02 02:51:41
408,goderich,CA,43.75,-81.72,35.6,90,100,33.33,overcast clouds,2020-11-02 02:51:41
409,daru,PG,-9.08,143.21,85.77,72,53,11.79,broken clouds,2020-11-02 02:51:41
410,benin,BJ,9.5,2.25,71.19,45,100,0.2,overcast clouds,2020-11-02 02:51:41
411,marzuq,YE,14.4,46.47,56.44,37,0,0.85,clear sky,2020-11-02 02:51:41
412,matagami,CA,49.75,-77.63,26.6,86,100,20.94,light rain,2020-11-02 02:51:41
413,sao jose da coroa grande,BR,-8.9,-35.15,76.71,84,73,10.33,broken clouds,2020-11-02 02:51:41
414,merauke,ID,-8.47,140.33,89.08,61,43,11.16,scattered clouds,2020-11-02 02:51:41
415,koryazhma,RU,61.31,47.17,27.07,97,62,3.04,broken clouds,2020-11-02 02:51:42
416,karasjok,NO,69.47,25.51,41.0,86,100,31.09,overcast clouds,2020-11-02 02:51:42
417,sola,VU,-13.88,167.55,81.21,84,50,17.27,light rain,2020-11-02 02:51:42
418,tigil,RU,57.8,158.67,39.81,69,66,9.22,broken clouds,2020-11-02 02:51:42
419,komsomolskiy,UZ,40.43,71.72,42.8,38,100,6.93,overcast clouds,2020-11-02 02:51:42
420,hwange,ZW,-18.37,26.5,70.45,50,0,6.06,clear sky,2020-11-02 02:51:42
421,palestine,PS,31.92,35.2,71.6,73,40,5.82,scattered clouds,2020-11-02 02:51:42
422,zolotukhino,RU,52.08,36.38,48.2,87,90,8.95,light rain,2020-11-02 02:51:42
423,makurdi,NG,7.74,8.51,74.93,87,79,2.57,broken clouds,2020-11-02 02:51:42
424,masvingo,ZW,-20.06,30.83,59.61,84,86,3.4,overcast clouds,2020-11-02 02:51:42
425,taltal,CL,-25.4,-70.48,57.52,71,6,5.73,clear sky,2020-11-02 02:50:20
426,chifeng,CN,42.27,118.96,35.31,60,0,19.33,clear sky,2020-11-02 02:51:43
427,poyarkovo,RU,49.6,128.68,24.28,95,100,13.4,overcast clouds,2020-11-02 02:51:43
428,meghraj,IN,23.5,73.5,74.48,24,0,10.89,clear sky,2020-11-02 02:51:43
429,shaowu,CN,27.34,117.48,65.75,71,98,2.66,overcast clouds,2020-11-02 02:51:43
430,northam,GB,51.03,-4.22,61.0,96,100,8.01,overcast clouds,2020-11-02 02:51:43
431,williams lake,CA,52.14,-122.14,41.0,77,75,8.05,broken clouds,2020-11-02 02:51:43
432,carballo,ES,43.21,-8.69,66.99,84,90,5.99,overcast clouds,2020-11-02 02:51:43
433,gouyave,GD,12.16,-61.73,78.8,88,75,6.93,broken clouds,2020-11-02 02:51:43
434,pampa,US,35.54,-100.96,51.8,53,1,12.75,clear sky,2020-11-02 02:51:44
435,molina,CL,-35.12,-71.28,60.8,63,0,2.24,clear sky,2020-11-02 02:51:44
436,xining,CN,36.62,101.77,37.33,65,1,2.1,clear sky,2020-11-02 02:51:44
437,paamiut,GL,61.99,-49.67,25.7,92,38,5.17,scattered clouds,2020-11-02 02:51:44
438,bousso,TD,10.48,16.71,77.49,65,8,3.11,clear sky,2020-11-02 02:51:44
439,marystown,CA,47.17,-55.15,45.0,100,97,15.68,overcast clouds,2020-11-02 02:51:44
440,portland,US,45.52,-122.68,57.2,50,1,9.17,clear sky,2020-11-02 02:48:30
441,shebunino,RU,46.43,141.86,51.73,82,17,5.91,few clouds,2020-11-02 02:51:44
442,bauska,LV,56.41,24.19,44.6,75,90,10.29,overcast clouds,2020-11-02 02:51:44
443,porbandar,IN,21.64,69.61,80.71,32,6,10.51,clear sky,2020-11-02 02:51:45
444,leshan,CN,29.56,103.76,63.28,60,99,2.73,overcast clouds,2020-11-02 02:51:45
445,la rioja,ES,42.25,-2.5,55.99,78,63,5.84,broken clouds,2020-11-02 02:51:45
446,beringovskiy,RU,63.05,179.32,24.49,93,98,3.29,overcast clouds,2020-11-02 02:51:45
447,guerrero negro,MX,27.98,-114.06,69.73,69,0,11.25,clear sky,2020-11-02 02:50:20
448,vardo,NO,70.37,31.11,44.69,81,100,28.16,overcast clouds,2020-11-02 02:51:46
449,balkanabat,TM,39.51,54.37,60.1,43,0,0.96,clear sky,2020-11-02 02:51:46
450,kungurtug,RU,50.6,97.52,27.72,79,50,1.3,scattered clouds,2020-11-02 02:51:46
451,cabedelo,BR,-6.98,-34.83,78.8,83,75,5.82,broken clouds,2020-11-02 02:51:46
452,loa janan,ID,-0.58,117.09,77.45,89,100,1.19,moderate rain,2020-11-02 02:51:46
453,kem,RU,64.96,34.58,35.1,87,100,11.3,overcast clouds,2020-11-02 02:51:46
454,tangzhai,CN,34.43,116.59,67.19,25,17,9.57,few clouds,2020-11-02 02:47:40
455,fairview,US,40.81,-74.0,50.0,66,90,9.17,overcast clouds,2020-11-02 02:51:46
456,manjacaze,MZ,-24.71,33.88,64.72,91,14,1.83,few clouds,2020-11-02 02:51:46
457,onokhoy,RU,51.93,108.07,15.8,72,13,4.47,few clouds,2020-11-02 02:51:47
458,trat,TH,12.5,102.5,84.2,70,40,5.82,scattered clouds,2020-11-02 02:51:47
459,san fernando,PH,15.03,120.69,77.0,94,90,6.93,overcast clouds,2020-11-02 02:51:47
460,yashkul,RU,46.17,45.34,52.21,46,82,8.46,broken clouds,2020-11-02 02:51:47
461,dakar,SN,14.69,-17.44,77.0,65,0,5.82,clear sky,2020-11-02 02:47:07
462,pacific grove,US,36.62,-121.92,59.0,77,1,4.7,clear sky,2020-11-02 02:51:47
463,klyuchi,RU,52.27,79.17,36.39,81,100,5.21,overcast clouds,2020-11-02 02:51:48
464,price,US,39.6,-110.81,44.6,30,1,8.05,clear sky,2020-11-02 02:51:48
465,rio gallegos,AR,-51.62,-69.22,50.0,76,0,3.36,clear sky,2020-11-02 02:51:48
466,umba,RU,66.69,34.34,38.44,86,100,13.2,overcast clouds,2020-11-02 02:51:48
467,bend,US,44.06,-121.32,46.99,45,1,1.36,clear sky,2020-11-02 02:51:48
468,alausi,EC,-2.2,-78.83,43.45,75,77,0.78,broken clouds,2020-11-02 02:51:48
469,mandurah,AU,-32.55,115.7,70.0,64,75,5.82,light rain,2020-11-02 02:51:48
470,ostashkov,RU,57.15,33.11,35.76,88,100,6.33,overcast clouds,2020-11-02 02:51:48
471,oussouye,SN,12.48,-16.55,79.72,81,0,6.26,clear sky,2020-11-02 02:51:49
472,mumford,GH,5.26,-0.76,78.12,89,100,7.61,overcast clouds,2020-11-02 02:51:49
473,nizhneangarsk,RU,55.78,109.55,15.21,75,0,3.42,clear sky,2020-11-02 02:51:49
474,padang,ID,-0.95,100.35,85.35,61,82,4.92,light rain,2020-11-02 02:51:49
475,egvekinot,RU,66.32,-179.17,11.01,87,61,1.21,broken clouds,2020-11-02 02:51:49
476,wainwright,CA,52.84,-110.86,44.6,65,97,8.05,overcast clouds,2020-11-02 02:51:49
477,marang,MY,5.21,103.21,80.6,83,20,4.7,light rain,2020-11-02 02:51:49
478,meulaboh,ID,4.14,96.13,79.97,82,97,3.2,overcast clouds,2020-11-02 02:47:22
479,yellowknife,CA,62.46,-114.35,10.99,85,75,11.41,light snow,2020-11-02 02:51:50
480,otane,NZ,-39.88,176.63,65.57,61,100,7.52,overcast clouds,2020-11-02 02:51:50
481,tezu,IN,27.92,96.17,75.69,66,77,1.88,broken clouds,2020-11-02 02:51:50
482,trail,CA,49.1,-117.7,37.4,65,0,1.12,clear sky,2020-11-02 02:51:50
483,igrim,RU,63.19,64.42,26.56,94,63,7.72,broken clouds,2020-11-02 02:51:50
484,rochester,US,43.15,-77.62,37.0,64,40,12.75,scattered clouds,2020-11-02 02:50:34
485,pancol,PH,10.87,119.42,83.8,74,94,12.8,light rain,2020-11-02 02:51:50
486,port-gentil,GA,-0.72,8.78,78.12,87,100,9.46,overcast clouds,2020-11-02 02:51:50
487,pangnirtung,CA,66.15,-65.71,8.1,83,74,5.17,broken clouds,2020-11-02 02:51:50
488,mecca,SA,21.43,39.83,73.63,73,0,2.8,clear sky,2020-11-02 02:51:51
489,erenhot,CN,43.65,111.98,27.37,68,0,15.93,clear sky,2020-11-02 02:51:51
490,taga,RO,46.95,24.05,35.6,100,90,3.36,overcast clouds,2020-11-02 02:51:51
491,palmer,US,42.16,-72.33,42.8,75,75,11.41,broken clouds,2020-11-02 02:51:51
492,huarmey,PE,-10.07,-78.15,61.11,86,42,6.42,scattered clouds,2020-11-02 02:51:51
493,gweru,ZW,-19.45,29.82,58.44,83,90,5.35,overcast clouds,2020-11-02 02:51:51
494,autun,FR,46.95,4.3,62.01,77,0,3.36,clear sky,2020-11-02 02:51:51
495,razdolinsk,RU,58.42,94.67,31.75,99,100,9.98,overcast clouds,2020-11-02 02:51:51
496,isabela,PH,6.71,121.97,86.0,74,75,9.17,broken clouds,2020-11-02 02:51:52
497,viamao,BR,-30.08,-51.02,62.01,72,0,5.82,clear sky,2020-11-02 02:50:58
498,makubetsu,JP,45.37,141.82,53.6,81,40,10.29,scattered clouds,2020-11-02 02:51:52
499,kysyl-syr,RU,63.9,122.76,4.1,90,18,8.16,few clouds,2020-11-02 02:51:52
500,sabirabad,AZ,40.01,48.48,57.2,100,90,9.17,fog,2020-11-02 02:51:52
501,bagdarin,RU,54.43,113.6,12.51,74,0,4.38,clear sky,2020-11-02 02:51:52
502,zima,RU,53.92,102.04,20.61,87,18,9.91,few clouds,2020-11-02 02:51:52
503,kaeo,NZ,-35.1,173.78,73.99,74,100,8.99,overcast clouds,2020-11-02 02:51:52
504,kiruna,SE,67.86,20.23,37.4,93,100,14.99,overcast clouds,2020-11-02 02:51:53
505,gazojak,TM,41.19,61.4,50.99,38,0,7.52,clear sky,2020-11-02 02:51:53
506,agapovka,RU,53.3,59.13,32.0,97,90,6.71,overcast clouds,2020-11-02 02:51:53
507,nhulunbuy,AU,-12.23,136.77,91.4,49,13,10.29,few clouds,2020-11-02 02:51:53
508,kogon,UZ,39.72,64.55,41.0,38,0,3.8,clear sky,2020-11-02 02:51:53
509,lakatoro,VU,-16.1,167.42,86.0,70,40,11.41,scattered clouds,2020-11-02 02:51:53
510,diourbel,SN,14.66,-16.39,75.7,29,7,3.22,clear sky,2020-11-02 02:51:53
511,magaria,NE,13.0,8.91,73.81,23,89,10.18,overcast clouds,2020-11-02 02:51:53
512,fort-shevchenko,KZ,44.51,50.26,58.08,36,7,7.4,clear sky,2020-11-02 02:51:54
513,sili,CN,28.4,117.17,62.42,85,100,2.57,overcast clouds,2020-11-02 02:51:54
514,aksarka,RU,66.56,67.8,22.42,95,45,9.8,scattered clouds,2020-11-02 02:51:54
515,tessalit,ML,20.2,1.01,71.49,25,67,13.94,broken clouds,2020-11-02 02:51:54
516,pilar do sul,BR,-23.81,-47.72,55.56,89,72,7.65,broken clouds,2020-11-02 02:51:54
517,namibe,AO,-15.2,12.15,69.46,79,10,3.62,clear sky,2020-11-02 02:51:54
518,katsuura,JP,35.13,140.3,71.6,93,75,14.99,broken clouds,2020-11-02 02:46:55
519,staromyshastovskaya,RU,45.34,39.08,57.2,71,40,8.95,scattered clouds,2020-11-02 02:51:54
520,pingdu,CN,36.78,119.95,60.8,48,0,2.24,clear sky,2020-11-02 02:51:55
521,brae,GB,60.4,-1.35,50.0,81,90,32.21,overcast clouds,2020-11-02 02:51:55
522,iranshahr,IR,27.2,60.68,57.2,8,0,6.93,clear sky,2020-11-02 02:51:55
523,gat,IL,31.61,34.76,69.01,82,100,2.53,overcast clouds,2020-11-02 02:48:01
524,ancud,CL,-41.87,-73.82,48.99,87,43,2.24,scattered clouds,2020-11-02 02:51:55
525,mahajanga,MG,-15.72,46.32,77.0,69,40,6.93,scattered clouds,2020-11-02 02:51:55
526,puerto del rosario,ES,28.5,-13.86,69.8,83,20,18.34,few clouds,2020-11-02 02:51:55
527,talara,PE,-4.58,-81.27,63.14,88,100,13.06,overcast clouds,2020-11-02 02:51:55
528,aracruz,BR,-19.82,-40.27,69.8,77,90,16.11,overcast clouds,2020-11-02 02:51:56
529,olafsvik,IS,64.89,-23.71,35.67,92,97,15.3,light rain,2020-11-02 02:51:56
530,takaka,NZ,-40.85,172.8,55.0,88,100,5.99,light rain,2020-11-02 02:50:07
531,pangai,TO,-19.8,-174.35,80.6,78,20,19.46,few clouds,2020-11-02 02:51:56
532,ivanava,BY,52.15,25.54,37.65,94,33,1.83,scattered clouds,2020-11-02 02:51:56
533,halifax,CA,44.65,-63.57,55.99,87,100,24.16,light rain,2020-11-02 02:47:33
534,pizhanka,RU,57.46,48.54,28.0,96,0,3.44,clear sky,2020-11-02 02:51:56
535,bronnoysund,NO,65.46,12.2,50.0,76,88,24.16,moderate rain,2020-11-02 02:51:56
536,lulea,SE,65.58,22.15,44.6,93,100,23.04,light rain,2020-11-02 02:51:56
537,aranos,NA,-24.13,19.12,71.01,37,71,9.86,broken clouds,2020-11-02 02:51:57
538,kallithea,GR,37.95,23.7,59.0,76,20,4.25,few clouds,2020-11-02 02:51:57
539,adiake,CI,5.29,-3.3,80.6,88,20,8.05,few clouds,2020-11-02 02:51:57
540,sembe,CG,1.65,14.58,70.84,95,100,1.59,heavy intensity rain,2020-11-02 02:51:57
541,chara,RU,56.91,118.26,-2.6,83,22,2.46,few clouds,2020-11-02 02:51:57
542,najran,SA,17.49,44.13,55.4,32,0,0.51,clear sky,2020-11-02 02:51:57
543,kaduqli,SD,11.02,29.72,77.88,54,63,4.63,broken clouds,2020-11-02 02:51:58
544,nkan,GA,0.38,9.78,77.0,94,40,5.82,scattered clouds,2020-11-02 02:51:58
545,ponta delgada,PT,37.73,-25.67,62.6,82,20,4.7,few clouds,2020-11-02 02:51:58
546,maragogi,BR,-9.01,-35.22,76.44,85,25,10.31,scattered clouds,2020-11-02 02:51:58
547,los llanos de aridane,ES,28.66,-17.92,71.6,46,0,10.29,clear sky,2020-11-02 02:51:58
548,mayo,US,38.89,-76.51,53.6,46,40,17.22,scattered clouds,2020-11-02 02:51:58
549,korla,CN,41.76,86.15,45.7,53,0,5.48,clear sky,2020-11-02 02:51:58
550,talnakh,RU,69.49,88.4,19.4,92,75,4.47,light snow,2020-11-02 02:51:58
551,puerto colombia,CO,10.99,-74.95,75.2,100,20,2.24,few clouds,2020-11-02 02:51:58
552,aasiaat,GL,68.71,-52.87,21.04,96,100,3.85,overcast clouds,2020-11-02 02:51:58
553,namatanai,PG,-3.67,152.43,84.15,72,63,3.65,broken clouds,2020-11-02 02:51:59
554,gravdal,NO,68.12,13.5,49.26,80,100,25.28,light rain,2020-11-02 02:51:59
555,sosnovo-ozerskoye,RU,52.52,111.54,17.17,82,1,6.69,clear sky,2020-11-02 02:51:59
556,piacabucu,BR,-10.41,-36.43,77.2,83,85,12.08,overcast clouds,2020-11-02 02:51:59
557,kushima,JP,31.46,131.23,66.2,93,75,4.7,mist,2020-11-02 02:51:59
558,qaqortoq,GL,60.72,-46.03,23.0,73,0,4.7,clear sky,2020-11-02 02:52:00
559,balaipungut,ID,1.05,101.28,87.53,62,98,4.16,light rain,2020-11-02 02:52:00
560,berlevag,NO,70.86,29.09,43.14,82,100,36.19,overcast clouds,2020-11-02 02:52:00
561,ahipara,NZ,-35.17,173.17,69.71,75,100,9.22,overcast clouds,2020-11-02 02:52:00
562,barrhead,GB,55.8,-4.39,48.2,93,84,16.11,light rain,2020-11-02 02:52:00
563,masyaf,SY,35.07,36.34,69.8,68,75,3.36,moderate rain,2020-11-02 02:52:01
564,rathdrum,US,47.81,-116.89,44.01,64,1,8.05,clear sky,2020-11-02 02:52:01
565,chernyshevskiy,RU,63.01,112.47,7.72,90,92,10.38,overcast clouds,2020-11-02 02:52:01
566,charters towers,AU,-20.1,146.27,93.04,24,0,10.85,clear sky,2020-11-02 02:52:01
567,zunyi,CN,27.69,106.91,49.77,84,100,2.53,light rain,2020-11-02 02:50:41
568,libreville,GA,0.39,9.45,77.0,94,40,5.82,scattered clouds,2020-11-02 02:52:02
569,araouane,ML,18.9,-3.53,80.64,16,77,5.7,broken clouds,2020-11-02 02:52:02
570,muroto,JP,33.28,134.15,64.4,100,75,4.7,broken clouds,2020-11-02 02:52:02
571,san ramon,US,37.78,-121.98,69.8,36,1,3.36,smoke,2020-11-02 02:50:01
572,itarema,BR,-2.92,-39.92,79.66,80,39,11.83,scattered clouds,2020-11-02 02:47:22
573,poroshkovo,UA,48.67,22.75,37.99,90,100,2.62,overcast clouds,2020-11-02 02:52:02
574,morro bay,US,35.37,-120.85,66.99,54,14,2.75,few clouds,2020-11-02 02:51:44
575,adrar,MR,20.5,-10.07,76.48,19,100,10.27,overcast clouds,2020-11-02 02:52:02
576,alekseyevsk,RU,57.84,108.35,17.92,85,3,6.44,clear sky,2020-11-02 02:52:02
577,hovd,MN,48.01,91.64,31.19,83,0,1.23,clear sky,2020-11-02 02:52:02
578,lata,PT,40.16,-8.33,64.99,92,89,1.21,overcast clouds,2020-11-02 02:52:03
579,kalmunai,LK,7.42,81.82,83.14,69,67,6.11,broken clouds,2020-11-02 02:52:03
580,touros,BR,-5.2,-35.46,80.6,78,75,11.41,broken clouds,2020-11-02 02:52:03
581,colonial heights,US,37.27,-77.41,55.4,57,1,8.05,clear sky,2020-11-02 02:52:03
582,molochnoye,RU,59.29,39.68,27.3,98,0,5.57,clear sky,2020-11-02 02:52:03
583,bani,DO,18.28,-70.33,80.01,97,99,8.05,overcast clouds,2020-11-02 02:47:43
584,parabel,RU,58.7,81.48,29.34,97,98,9.46,overcast clouds,2020-11-02 02:52:03
585,dana point,US,33.47,-117.7,70.0,74,0,2.57,clear sky,2020-11-02 02:52:03
586,marrakesh,MA,31.63,-8.01,60.8,59,0,2.24,clear sky,2020-11-02 02:47:18
587,shenjiamen,CN,29.96,122.3,64.08,80,99,16.17,overcast clouds,2020-11-02 02:52:04
588,leshukonskoye,RU,64.9,45.76,31.28,98,100,7.23,overcast clouds,2020-11-02 02:52:04
589,makasar,ID,-5.14,119.42,87.17,55,100,4.16,overcast clouds,2020-11-02 02:52:05
590,tefe,BR,-3.35,-64.71,73.76,90,28,3.04,scattered clouds,2020-11-02 02:52:05
591,kochubey,RU,44.39,46.58,52.52,70,90,8.03,overcast clouds,2020-11-02 02:52:05
592,nioro,GM,13.35,-15.75,76.44,62,0,5.39,clear sky,2020-11-02 02:52:05
593,louga,RU,58.74,29.85,31.89,98,0,5.99,clear sky,2020-11-02 02:52:06
594,filadelfia,US,39.95,-75.16,48.2,57,40,18.34,scattered clouds,2020-11-02 02:47:30
595,impfondo,CG,1.64,18.07,69.67,98,100,2.71,light rain,2020-11-02 02:52:06
596,balsas,BR,-7.53,-46.04,77.81,70,68,3.56,broken clouds,2020-11-02 02:52:06
597,concepcion,CL,-36.83,-73.05,53.6,87,90,3.36,overcast clouds,2020-11-02 02:50:20
598,rawson,AR,-43.3,-65.1,74.46,26,99,24.92,overcast clouds,2020-11-02 02:52:06
599,biltine,TD,14.53,20.92,78.35,29,41,11.36,scattered clouds,2020-11-02 02:52:06
600,seoul,KR,37.57,126.98,57.2,28,1,5.82,clear sky,2020-11-02 02:51:01
601,meiganga,CM,6.52,14.3,66.67,87,99,3.18,overcast clouds,2020-11-02 02:52:07
602,kashihara,JP,34.51,135.79,62.6,88,75,3.36,light intensity shower rain,2020-11-02 02:52:07
603,grootfontein,NA,-19.57,18.12,72.32,30,22,8.1,few clouds,2020-11-02 02:52:07
604,lexington,US,37.99,-84.48,37.0,55,1,9.17,clear sky,2020-11-02 02:47:41
605,tupik,RU,54.43,119.93,12.07,79,25,14.79,scattered clouds,2020-11-02 02:52:08
606,plettenberg bay,ZA,-34.05,23.37,61.32,87,0,5.57,clear sky,2020-11-02 02:52:08
607,tokur,RU,53.13,132.9,17.96,95,100,7.05,light snow,2020-11-02 02:52:08
608,esfarayen,IR,37.08,57.51,37.4,47,0,2.24,clear sky,2020-11-02 02:52:08
609,miles city,US,46.41,-105.84,51.8,34,1,3.36,clear sky,2020-11-02 02:52:08
610,port hedland,AU,-20.32,118.57,87.8,45,40,10.29,scattered clouds,2020-11-02 02:47:36
611,korem,ET,12.51,39.52,48.29,88,0,3.06,clear sky,2020-11-02 02:52:09
612,nanakuli,US,21.39,-158.15,82.4,65,40,9.17,scattered clouds,2020-11-02 02:51:38
613,comodoro rivadavia,AR,-45.87,-67.5,64.4,59,0,4.9,clear sky,2020-11-02 02:52:09
614,masaka,UG,-0.33,31.73,61.3,86,64,0.34,broken clouds,2020-11-02 02:52:09
615,tabou,CI,4.42,-7.35,76.86,89,6,5.59,light rain,2020-11-02 02:52:10
616,zhuhai,CN,22.28,113.57,81.0,69,100,14.99,overcast clouds,2020-11-02 02:52:10
617,vostok,RU,46.49,135.88,33.75,89,66,7.38,broken clouds,2020-11-02 02:52:10
618,kennett,US,36.24,-90.06,45.0,48,1,9.17,clear sky,2020-11-02 02:52:10
619,puerto carreno,CO,6.19,-67.49,74.23,95,98,2.48,overcast clouds,2020-11-02 02:52:10
620,atasu,KZ,48.68,71.64,37.31,67,98,4.9,overcast clouds,2020-11-02 02:52:11
621,qeshm,IR,26.96,56.27,66.2,77,0,6.93,clear sky,2020-11-02 02:52:11
622,forestville,US,38.85,-76.88,51.8,37,20,31.09,few clouds,2020-11-02 02:52:11
623,gunjur,GM,13.2,-16.73,75.2,100,0,8.93,clear sky,2020-11-02 02:52:11
624,la union,PE,-5.4,-80.75,63.25,82,89,9.78,overcast clouds,2020-11-02 02:52:11
625,negara,ID,-8.32,114.6,85.8,63,33,3.49,scattered clouds,2020-11-02 02:49:14
626,taloqan,AF,36.74,69.53,52.47,33,64,2.17,broken clouds,2020-11-02 02:52:12
627,kasongo-lunda,CD,-6.47,16.82,69.89,92,100,1.32,overcast clouds,2020-11-02 02:52:12
628,ketchikan,US,55.34,-131.65,51.8,100,90,51.67,heavy intensity rain,2020-11-02 02:52:12
629,kapoeta,SS,4.77,33.59,77.67,58,98,10.74,overcast clouds,2020-11-02 02:52:12
630,murupara,NZ,-38.47,176.7,77.0,50,100,1.01,overcast clouds,2020-11-02 02:52:12
631,maumere,ID,-8.62,122.21,86.81,60,94,1.95,overcast clouds,2020-11-02 02:52:12
632,mata,PT,40.68,-7.46,60.01,94,98,4.92,overcast clouds,2020-11-02 02:52:12
633,jardim,BR,-21.48,-56.14,68.31,71,11,3.71,few clouds,2020-11-02 02:52:13
634,krasnovishersk,RU,60.41,57.08,25.16,98,67,2.39,broken clouds,2020-11-02 02:52:13
635,durban,ZA,-29.86,31.03,62.01,93,90,6.93,heavy intensity rain,2020-11-02 02:47:50
636,mo i rana,NO,66.31,14.14,42.1,81,100,8.21,overcast clouds,2020-11-02 02:52:13
637,sena madureira,BR,-9.07,-68.66,73.74,75,10,1.39,clear sky,2020-11-02 02:52:13
638,sanghar,PK,26.05,68.95,79.21,17,0,0.78,clear sky,2020-11-02 02:52:14
639,ust-omchug,RU,61.15,149.63,25.93,96,100,3.36,light snow,2020-11-02 02:52:14
640,trinidad,BO,-14.83,-64.9,74.71,41,100,3.51,overcast clouds,2020-11-02 02:52:14
641,mirabad,AF,30.44,61.84,53.98,26,0,2.17,clear sky,2020-11-02 02:52:14
642,schladming,AT,47.39,13.69,53.6,76,90,8.05,overcast clouds,2020-11-02 02:52:15
643,ormond beach,US,29.29,-81.06,72.0,100,90,3.36,overcast clouds,2020-11-02 02:49:35
644,fochville,ZA,-26.49,27.49,58.95,82,95,9.55,overcast clouds,2020-11-02 02:52:15
645,son la,VN,21.32,103.9,76.6,69,62,2.66,broken clouds,2020-11-02 02:52:15
646,turek,PL,52.02,18.5,48.0,95,72,4.0,broken clouds,2020-11-02 02:52:15
647,bereda,ES,43.27,-7.54,66.0,100,100,11.99,overcast clouds,2020-11-02 02:52:16
648,almeirim,BR,-1.52,-52.58,81.05,57,90,4.41,overcast clouds,2020-11-02 02:52:16
649,anori,BR,-3.77,-61.64,75.47,80,72,1.99,broken clouds,2020-11-02 02:52:16
650,stanisic,RS,45.94,19.17,44.6,93,0,5.82,clear sky,2020-11-02 02:52:16
651,anuchino,RU,43.96,133.05,41.63,61,16,8.9,few clouds,2020-11-02 02:52:16
652,udachnyy,RU,66.42,112.4,8.6,78,0,6.71,clear sky,2020-11-02 02:52:16
653,soyo,AO,-6.13,12.37,77.49,88,100,5.3,overcast clouds,2020-11-02 02:52:16
654,batsfjord,NO,70.63,29.72,42.53,80,100,31.99,overcast clouds,2020-11-02 02:52:17
655,san andres,CO,12.58,-81.7,80.6,88,75,4.7,broken clouds,2020-11-02 02:52:17
656,noyon,FR,49.58,3.0,64.0,93,90,23.04,light intensity drizzle,2020-11-02 02:52:17
657,freeport,US,40.66,-73.58,51.01,70,88,10.0,overcast clouds,2020-11-02 02:52:17
658,ferkessedougou,CI,9.6,-5.2,74.37,72,0,3.83,clear sky,2020-11-02 02:52:18
659,owensboro,US,37.77,-87.11,41.0,44,1,10.29,clear sky,2020-11-02 02:50:01
660,faya,SA,18.39,42.45,55.4,34,0,3.33,clear sky,2020-11-02 02:52:18
661,knysna,ZA,-34.04,23.05,55.4,100,0,2.24,clear sky,2020-11-02 02:52:18
662,baykit,RU,61.67,96.37,27.99,96,100,6.58,light snow,2020-11-02 02:52:18
663,dauphin,CA,51.15,-100.05,42.8,52,20,20.8,few clouds,2020-11-02 02:50:13
664,cartagena,CO,10.4,-75.51,78.8,100,40,4.7,scattered clouds,2020-11-02 02:52:18
665,aquidauana,BR,-20.47,-55.79,72.09,60,7,5.86,clear sky,2020-11-02 02:52:19
666,sept-iles,CA,50.2,-66.38,39.2,86,100,3.36,overcast clouds,2020-11-02 02:49:12
667,nyurba,RU,63.28,118.33,5.49,87,58,10.16,broken clouds,2020-11-02 02:52:19
668,ramnagar,IN,29.4,79.12,57.2,87,0,0.74,mist,2020-11-02 02:52:19
669,okhotsk,RU,59.38,143.3,23.25,87,100,19.64,overcast clouds,2020-11-02 02:52:19
670,hamadan,IR,34.8,48.51,39.25,65,0,0.89,clear sky,2020-11-02 02:52:19
671,urumqi,CN,43.8,87.6,41.0,48,0,4.47,clear sky,2020-11-02 02:52:09
672,sovetskiy,RU,61.36,63.58,25.63,96,92,5.41,overcast clouds,2020-11-02 02:52:19
673,quilmana,PE,-12.95,-76.38,62.98,74,58,3.76,broken clouds,2020-11-02 02:52:19
674,cosenza,IT,39.31,16.25,54.0,86,89,1.01,overcast clouds,2020-11-02 02:52:20
675,ituango,CO,7.17,-75.76,62.01,94,100,0.98,overcast clouds,2020-11-02 02:52:20
676,dolores,AR,-36.31,-57.68,50.59,63,14,3.6,few clouds,2020-11-02 02:52:20
677,labuhan,ID,-6.88,112.21,85.32,66,100,6.58,heavy intensity rain,2020-11-02 02:52:20
678,svetlogorsk,BY,52.63,29.73,43.09,85,100,7.47,overcast clouds,2020-11-02 02:52:20
679,gazli,UZ,40.13,63.45,51.19,37,0,8.34,clear sky,2020-11-02 02:52:21
680,lakes entrance,AU,-37.88,147.98,71.01,68,47,5.01,scattered clouds,2020-11-02 02:52:21
681,iseyin,NG,7.97,3.6,72.23,98,18,3.22,few clouds,2020-11-02 02:52:21
682,olinda,BR,-8.01,-34.86,80.6,74,40,6.93,scattered clouds,2020-11-02 02:51:21
683,ust-maya,RU,60.42,134.53,-2.42,87,100,5.97,overcast clouds,2020-11-02 02:52:21
684,guanare,VE,9.04,-69.74,73.45,92,100,1.19,overcast clouds,2020-11-02 02:52:21
685,insar,RU,53.87,44.37,41.88,91,92,6.71,overcast clouds,2020-11-02 02:52:22
686,tazovskiy,RU,67.47,78.7,19.58,97,98,14.45,overcast clouds,2020-11-02 02:52:22
687,diego de almagro,CL,-26.37,-70.05,54.09,42,0,0.96,clear sky,2020-11-02 02:52:22
688,bundaberg,AU,-24.85,152.35,84.2,51,7,21.92,clear sky,2020-11-02 02:52:22
689,bahia honda,CU,22.9,-83.16,78.48,86,9,11.3,clear sky,2020-11-02 02:52:22
690,whyalla,AU,-33.03,137.58,86.0,27,1,11.41,clear sky,2020-11-02 02:52:22
691,beruwala,LK,6.48,79.98,82.36,70,0,2.8,clear sky,2020-11-02 02:52:23
692,san rafael,AR,-34.62,-68.33,69.6,24,50,6.04,scattered clouds,2020-11-02 02:52:23
693,porto velho,BR,-8.76,-63.9,77.0,94,0,2.24,clear sky,2020-11-02 02:52:13
